{
  "node_ids": [
    "v01",
    "v02",
    "v03",
    "v04",
    "v05",
    "v06",
    "v07",
    "v08",
    "v09",
    "v10"
  ],
  "edge_ids": [
    "v01в†’v02",
    "v01в†’v03",
    "v01в†’v04",
    "v01в†’v05",
    "v01в†’v06",
    "v01в†’v07",
    "v01в†’v08",
    "v01в†’v09",
    "v01в†’v10",
    "v02в†’v01",
    "v02в†’v03",
    "v02в†’v04",
    "v02в†’v05",
    "v02в†’v06",
    "v02в†’v07",
    "v02в†’v08",
    "v02в†’v09",
    "v02в†’v10",
    "v03в†’v01",
    "v03в†’v02",
    "v03в†’v04",
    "v03в†’v05",
    "v03в†’v06",
    "v03в†’v07",
    "v03в†’v08",
    "v03в†’v09",
    "v03в†’v10",
    "v04в†’v01",
    "v04в†’v02",
    "v04в†’v03",
    "v04в†’v05",
    "v04в†’v06",
    "v04в†’v07",
    "v04в†’v08",
    "v04в†’v09",
    "v04в†’v10",
    "v05в†’v01",
    "v05в†’v02",
    "v05в†’v03",
    "v05в†’v04",
    "v05в†’v06",
    "v05в†’v07",
    "v05в†’v08",
    "v05в†’v09",
    "v05в†’v10",
    "v06в†’v01",
    "v06в†’v02",
    "v06в†’v03",
    "v06в†’v04",
    "v06в†’v05",
    "v06в†’v07",
    "v06в†’v08",
    "v06в†’v09",
    "v06в†’v10",
    "v07в†’v01",
    "v07в†’v02",
    "v07в†’v03",
    "v07в†’v04",
    "v07в†’v05",
    "v07в†’v06",
    "v07в†’v08",
    "v07в†’v09",
    "v07в†’v10",
    "v08в†’v01",
    "v08в†’v02",
    "v08в†’v03",
    "v08в†’v04",
    "v08в†’v05",
    "v08в†’v06",
    "v08в†’v07",
    "v08в†’v09",
    "v08в†’v10",
    "v09в†’v01",
    "v09в†’v02",
    "v09в†’v03",
    "v09в†’v04",
    "v09в†’v05",
    "v09в†’v06",
    "v09в†’v07",
    "v09в†’v08",
    "v09в†’v10",
    "v10в†’v01",
    "v10в†’v02",
    "v10в†’v03",
    "v10в†’v04",
    "v10в†’v05",
    "v10в†’v06",
    "v10в†’v07",
    "v10в†’v08",
    "v10в†’v09"
  ],
  "T": 183,
  "N": 10,
  "E": 90,
  "F": 6,
  "splits": {
    "train": [
      0,
      128
    ],
    "val": [
      128,
      155
    ],
    "test": [
      155,
      183
    ]
  },
  "nodes": {
    "v01": {
      "lat": 10.7729,
      "lon": 106.698,
      "poi_type": "commercial",
      "name": "Bбєїn ThГ nh"
    },
    "v02": {
      "lat": 10.7875,
      "lon": 106.6923,
      "poi_type": "arterial",
      "name": "Дђiб»‡n BiГЄn Phб»§-Hai BT"
    },
    "v03": {
      "lat": 10.7802,
      "lon": 106.6958,
      "poi_type": "roundabout",
      "name": "VГІng xoay DГўn Chб»§"
    },
    "v04": {
      "lat": 10.7848,
      "lon": 106.6889,
      "poi_type": "residential",
      "name": "LГЄ VДѓn Sб»№-N.Дђ.Chiб»ѓu"
    },
    "v05": {
      "lat": 10.7867,
      "lon": 106.685,
      "poi_type": "arterial",
      "name": "CMT8-Дђiб»‡n BiГЄn Phб»§"
    },
    "v06": {
      "lat": 10.796,
      "lon": 106.7222,
      "poi_type": "bridge",
      "name": "Cбє§u SГ i GГІn"
    },
    "v07": {
      "lat": 10.774,
      "lon": 106.703,
      "poi_type": "commercial",
      "name": "Nguyб»…n Huб»‡-LГЄ Lб»Јi"
    },
    "v08": {
      "lat": 10.7723,
      "lon": 106.704,
      "poi_type": "commercial",
      "name": "HГ m Nghi-TДђT"
    },
    "v09": {
      "lat": 10.7798,
      "lon": 106.691,
      "poi_type": "residential",
      "name": "VГµ VДѓn Tбє§n-NKK"
    },
    "v10": {
      "lat": 10.7822,
      "lon": 106.6978,
      "poi_type": "mixed",
      "name": "Pasteur-LГЄ Duбє©n"
    }
  }
}